{
"type": "FeatureCollection",
"name": "attraction",
"crs": { "type": "name", "properties": { "name": "urn:ogc:def:crs:OGC:1.3:CRS84" } },
"features": [
{ "type": "Feature", "properties": { "name": "Grandma SquarePants' house", "type": "historic house", "condition": "fair", "status": "existing", "progress": 0, "budget": 0.0, "water_use": 10950.0, "wastewater_prod": 7300.0, "solidwaste_prod": 255.5, "power_use": 1142.0, "visitor": 0, "labor": 1, "gdp": 0.0 }, "geometry": { "type": "Point", "coordinates": [ 151.19892886, -18.62800327 ] } },
{ "type": "Feature", "properties": { "name": "Jellyfish Field", "type": "nature", "condition": "good", "status": "existing", "progress": 0, "budget": 0.0, "water_use": 0.0, "wastewater_prod": 0.0, "solidwaste_prod": 0.0, "power_use": 0.0, "visitor": 0, "labor": 0, "gdp": 0.0 }, "geometry": { "type": "Point", "coordinates": [ 151.26201629, -18.61469519 ] } },
{ "type": "Feature", "properties": { "name": "The Seven Seas", "type": "cinema", "condition": "good", "status": "existing", "progress": 0, "budget": 0.0, "water_use": 56250000.0, "wastewater_prod": 67500000.0, "solidwaste_prod": 1125000.0, "power_use": 34260000.0, "visitor": 45000, "labor": 25, "gdp": 540000.0 }, "geometry": { "type": "Point", "coordinates": [ 151.21696135, -18.62107465 ] } },
{ "type": "Feature", "properties": { "name": "Sandy's House", "type": "historic house", "condition": "good", "status": "existing", "progress": 0, "budget": 0.0, "water_use": 3376600.0, "wastewater_prod": 3343750.0, "solidwaste_prod": 67551.5, "power_use": 13704.0, "visitor": 2675, "labor": 3, "gdp": 13375.0 }, "geometry": { "type": "Point", "coordinates": [ 151.234208380000013, -18.6279044 ] } },
{ "type": "Feature", "properties": { "name": "Mr. Krab's House", "type": "historic house", "condition": "poor", "status": "existing", "progress": 0, "budget": 0.0, "water_use": 1614400.0, "wastewater_prod": 1911000.0, "solidwaste_prod": 32361.0, "power_use": 14134.0, "visitor": 1274, "labor": 2, "gdp": 5096.0 }, "geometry": { "type": "Point", "coordinates": [ 151.214733669999987, -18.61180664 ] } },
{ "type": "Feature", "properties": { "name": "Mrs. Puff's House", "type": "historic house", "condition": "good", "status": "existing", "progress": 0, "budget": 0.0, "water_use": 6584100.0, "wastewater_prod": 7883400.0, "solidwaste_prod": 131791.5, "power_use": 11287.5, "visitor": 5242, "labor": 3, "gdp": 62892.0 }, "geometry": { "type": "Point", "coordinates": [ 151.21273152, -18.60668693 ] } },
{ "type": "Feature", "properties": { "name": "Mermalair", "type": "culture", "condition": "poor", "status": "existing", "progress": 0, "budget": 0.0, "water_use": 2270472250.0, "wastewater_prod": 1310071600.0, "solidwaste_prod": 26221908.5, "power_use": 50213554.0, "visitor": 872471, "labor": 187, "gdp": 13087065.0 }, "geometry": { "type": "Point", "coordinates": [ 151.206701399999986, -18.60440403 ] } },
{ "type": "Feature", "properties": { "name": "Sea Needle", "type": "landmark", "condition": "good", "status": "existing", "progress": 0, "budget": 0.0, "water_use": 36921.0, "wastewater_prod": 18397.0, "solidwaste_prod": 18369442.0, "power_use": 42682451.0, "visitor": 1097123, "labor": 32, "gdp": 2194246.0 }, "geometry": { "type": "Point", "coordinates": [ 151.21836764, -18.60344314 ] } },
{ "type": "Feature", "properties": { "name": "City Hall of Bikini Bottom", "type": "culture", "condition": "good", "status": "existing", "progress": 0, "budget": 0.0, "water_use": 213268200.0, "wastewater_prod": 254280800.0, "solidwaste_prod": 4267190.5, "power_use": 163951.0, "visitor": 168153, "labor": 281, "gdp": 218598.9 }, "geometry": { "type": "Point", "coordinates": [ 151.218799389999987, -18.60180001 ] } },
{ "type": "Feature", "properties": { "name": "Squiliam's Tower", "type": "historic house", "condition": "good", "status": "existing", "progress": 0, "budget": 0.0, "water_use": 3576900.0, "wastewater_prod": 3247140.0, "solidwaste_prod": 64731.2, "power_use": 13704.0, "visitor": 19634, "labor": 5, "gdp": 54816.0 }, "geometry": { "type": "Point", "coordinates": [ 151.220873829999988, -18.61318004 ] } },
{ "type": "Feature", "properties": { "name": "Patrick's House", "type": "historic house", "condition": "good", "status": "existing", "progress": 0, "budget": 0.0, "water_use": 3376600.0, "wastewater_prod": 3343750.0, "solidwaste_prod": 67551.5, "power_use": 13704.0, "visitor": 43120, "labor": 3, "gdp": 103495.2 }, "geometry": { "type": "Point", "coordinates": [ 151.23746989, -18.61345441 ] } },
{ "type": "Feature", "properties": { "name": "Squidward's House", "type": "historic house", "condition": "good", "status": "existing", "progress": 0, "budget": 0.0, "water_use": 3376600.0, "wastewater_prod": 3343750.0, "solidwaste_prod": 67551.5, "power_use": 13704.0, "visitor": 21294, "labor": 3, "gdp": 44717.4 }, "geometry": { "type": "Point", "coordinates": [ 151.23881891, -18.61417021 ] } },
{ "type": "Feature", "properties": { "name": "SpongeBob's House", "type": "historic house", "condition": "good", "status": "existing", "progress": 0, "budget": 0.0, "water_use": 3376600.0, "wastewater_prod": 3343750.0, "solidwaste_prod": 67551.5, "power_use": 13704.0, "visitor": 36274, "labor": 3, "gdp": 76175.4 }, "geometry": { "type": "Point", "coordinates": [ 151.24000274, -18.61499614 ] } },
{ "type": "Feature", "properties": { "name": "Brain Coral Fields", "type": "nature", "condition": "fair", "status": "existing", "progress": 0, "budget": 0.0, "water_use": 0.0, "wastewater_prod": 0.0, "solidwaste_prod": 0.0, "power_use": 0.0, "visitor": 65, "labor": 0, "gdp": 0.0 }, "geometry": { "type": "Point", "coordinates": [ 151.263162599999987, -18.62147336 ] } },
{ "type": "Feature", "properties": { "name": "Shady Shoals Rest Home", "type": "culture", "condition": "poor", "status": "existing", "progress": 0, "budget": 0.0, "water_use": 30594950.0, "wastewater_prod": 40983000.0, "solidwaste_prod": 948.052, "power_use": 205.56, "visitor": 36295, "labor": 145, "gdp": 58072.0 }, "geometry": { "type": "Point", "coordinates": [ 151.232974899999988, -18.61814039 ] } },
{ "type": "Feature", "properties": { "name": "Bikini Bottom Art Museum", "type": "culture", "condition": "fair", "status": "existing", "progress": 0, "budget": 0.0, "water_use": 393519900.0, "wastewater_prod": 471920200.0, "solidwaste_prod": 6588657.7, "power_use": 246.672, "visitor": 261967, "labor": 52, "gdp": 1404325.1 }, "geometry": { "type": "Point", "coordinates": [ 151.227925989999989, -18.61427666 ] } },
{ "type": "Feature", "properties": { "name": "Bikini Bottom Museum", "type": "culture", "condition": "good", "status": "existing", "progress": 0, "budget": 0.0, "water_use": 393519900.0, "wastewater_prod": 471920200.0, "solidwaste_prod": 6588657.7, "power_use": 246.672, "visitor": 260318, "labor": 75, "gdp": 1327621.8 }, "geometry": { "type": "Point", "coordinates": [ 151.22234734, -18.60356564 ] } },
{ "type": "Feature", "properties": { "name": "Bikini Bottom Museum of Boating", "type": "culture", "condition": "poor", "status": "existing", "progress": 0, "budget": 0.0, "water_use": 393519900.0, "wastewater_prod": 471920200.0, "solidwaste_prod": 6588657.7, "power_use": 246.672, "visitor": 234924, "labor": 37, "gdp": 1198112.4 }, "geometry": { "type": "Point", "coordinates": [ 151.22231014, -18.59638778 ] } },
{ "type": "Feature", "properties": { "name": "Lighthouse", "type": "landmark", "condition": "poor", "status": "existing", "progress": 0, "budget": 0.0, "water_use": 36921.0, "wastewater_prod": 18397.0, "solidwaste_prod": 18369442.0, "power_use": 42682451.0, "visitor": 1279132, "labor": 23, "gdp": 6523573.2 }, "geometry": { "type": "Point", "coordinates": [ 151.235913219999986, -18.60722396 ] } },
{ "type": "Feature", "properties": { "name": "The Reef", "type": "cinema", "condition": "poor", "status": "existing", "progress": 0, "budget": 0.0, "water_use": 56250000.0, "wastewater_prod": 67500000.0, "solidwaste_prod": 1125000.0, "power_use": 34260000.0, "visitor": 38000, "labor": 29, "gdp": 570.0 }, "geometry": { "type": "Point", "coordinates": [ 151.239683539999987, -18.60204388 ] } },
{ "type": "Feature", "properties": { "name": "BassCar Baytona 400", "type": "amusement", "condition": "poor", "status": "existing", "progress": 0, "budget": 0.0, "water_use": 1794232350.0, "wastewater_prod": 1494750150.0, "solidwaste_prod": 30041049.6, "power_use": 46867554.0, "visitor": 1194381, "labor": 243, "gdp": 9913362.3 }, "geometry": { "type": "Point", "coordinates": [ 151.24020944, -18.5984525 ] } },
{ "type": "Feature", "properties": { "name": "Glove World", "type": "amusement", "condition": "good", "status": "existing", "progress": 0, "budget": 0.0, "water_use": 2185554000.0, "wastewater_prod": 1820108750.0, "solidwaste_prod": 36037662.7, "power_use": 131947251.0, "visitor": 1452291, "labor": 650, "gdp": 21784365.0 }, "geometry": { "type": "Point", "coordinates": [ 151.24033366, -18.59410176 ] } },
{ "type": "Feature", "properties": { "name": "Glove World", "type": "amusement", "condition": null, "status": "planned", "progress": 0, "budget": 643500.0, "water_use": null, "wastewater_prod": null, "solidwaste_prod": null, "power_use": null, "visitor": null, "labor": null, "gdp": null }, "geometry": { "type": "Point", "coordinates": [ 151.24076974, -18.59028611 ] } },
{ "type": "Feature", "properties": { "name": "TAMAN HIBURAN", "type": "amusement", "condition": null, "status": "planned", "progress": null, "budget": 600000.0, "water_use": null, "wastewater_prod": null, "solidwaste_prod": null, "power_use": null, "visitor": null, "labor": null, "gdp": null }, "geometry": { "type": "Point", "coordinates": [ 151.25742724, -18.63063055 ] } },
{ "type": "Feature", "properties": { "name": "Kelp Forest", "type": "nature", "condition": "fair", "status": "existing", "progress": 0, "budget": 0.0, "water_use": 0.0, "wastewater_prod": 0.0, "solidwaste_prod": 0.0, "power_use": 0.0, "visitor": 3, "labor": 0, "gdp": 0.0 }, "geometry": { "type": "Point", "coordinates": [ 151.18793874, -18.57804545 ] } },
{ "type": "Feature", "properties": { "name": "Flying Dutchman Shipwreck", "type": "culture", "condition": "bad", "status": "existing", "progress": 0, "budget": 0.0, "water_use": 0.0, "wastewater_prod": 0.0, "solidwaste_prod": 0.0, "power_use": 0.0, "visitor": 27, "labor": 0, "gdp": 0.0 }, "geometry": { "type": "Point", "coordinates": [ 151.290873370000014, -18.6132 ] } },
{ "type": "Feature", "properties": { "name": "Go Lagoon Beach", "type": "nature", "condition": "fair", "status": "existing", "progress": 0, "budget": 0.0, "water_use": 778142700.0, "wastewater_prod": 864486200.0, "solidwaste_prod": 10851596.2, "power_use": 13527.0, "visitor": 432192, "labor": 14, "gdp": 1988083.2 }, "geometry": { "type": "Point", "coordinates": [ 151.23811143, -18.65385865 ] } },
{ "type": "Feature", "properties": { "name": "Rippers' Reef", "type": "nature", "condition": "bad", "status": "existing", "progress": 0, "budget": 0.0, "water_use": 0.0, "wastewater_prod": 0.0, "solidwaste_prod": 0.0, "power_use": 0.0, "visitor": 264, "labor": 0, "gdp": 0.0 }, "geometry": { "type": "Point", "coordinates": [ 151.23779282000001, -18.66343286 ] } },
{ "type": "Feature", "properties": { "name": "Tar Pits", "type": "nature", "condition": "poor", "status": "existing", "progress": 0, "budget": 0.0, "water_use": 0.0, "wastewater_prod": 0.0, "solidwaste_prod": 0.0, "power_use": 0.0, "visitor": 13, "labor": 0, "gdp": 0.0 }, "geometry": { "type": "Point", "coordinates": [ 151.22821582, -18.6505442 ] } }
]
}
