{
"type": "FeatureCollection",
"name": "amenity",
"crs": { "type": "name", "properties": { "name": "urn:ogc:def:crs:OGC:1.3:CRS84" } },
"features": [
{ "type": "Feature", "properties": { "name": "Krusty Krab", "type": "fnb", "condition": "fair", "status": "existing", "progress": 0, "budget": 0.0, "water_use": 3986637750.0, "wastewater_prod": 3322043000.0, "solidwaste_prod": 67247308.9, "power_use": 13275.0, "visitor": 2657138, "room": null, "labor": 6, "gdp": 3985707.0 }, "geometry": { "type": "Point", "coordinates": [ 151.22318013, -18.62053885 ] } },
{ "type": "Feature", "properties": { "name": "Fancy Hotel", "type": "hotel", "condition": "good", "status": "existing", "progress": 0, "budget": 0.0, "water_use": 195240750.0, "wastewater_prod": 162600250.0, "solidwaste_prod": 3296955.2, "power_use": 32502560.0, "visitor": 129759, "room": 300, "labor": 55, "gdp": 8434335.0 }, "geometry": { "type": "Point", "coordinates": [ 151.246416509999989, -18.59909541 ] } },
{ "type": "Feature", "properties": { "name": "Sunny Shore Resorts", "type": "resort", "condition": "good", "status": "existing", "progress": 0, "budget": 0.0, "water_use": 6868250.0, "wastewater_prod": 5370500.0, "solidwaste_prod": 140467.5, "power_use": 62845700.0, "visitor": 2375, "room": 600, "labor": 85, "gdp": 296875.0 }, "geometry": { "type": "Point", "coordinates": [ 151.23834259, -18.64705606 ] } },
{ "type": "Feature", "properties": { "name": "Hotel Deep Six", "type": "hotel", "condition": "poor", "status": "existing", "progress": 0, "budget": 0.0, "water_use": 144640500.0, "wastewater_prod": 120497250.0, "solidwaste_prod": 2441019.3, "power_use": 14464990.0, "visitor": 96281, "room": 150, "labor": 20, "gdp": 2407025.0 }, "geometry": { "type": "Point", "coordinates": [ 151.20908671, -18.59750055 ] } },
{ "type": "Feature", "properties": { "name": "Honeymoon Hotel", "type": "hotel", "condition": "good", "status": "existing", "progress": 0, "budget": 0.0, "water_use": 373666950.0, "wastewater_prod": 311259550.0, "solidwaste_prod": 6307543.4, "power_use": 62229332.0, "visitor": 248593, "room": 400, "labor": 71, "gdp": 16158545.0 }, "geometry": { "type": "Point", "coordinates": [ 151.21795814, -18.62361646 ] } },
{ "type": "Feature", "properties": { "name": "Hotel Halibut", "type": "hotel", "condition": "fair", "status": "existing", "progress": 0, "budget": 0.0, "water_use": 628871250.0, "wastewater_prod": 523904250.0, "solidwaste_prod": 10612980.6, "power_use": 62891120.0, "visitor": 418627, "room": 450, "labor": 85, "gdp": 7078050.0 }, "geometry": { "type": "Point", "coordinates": [ 151.22707878, -18.60148771 ] } },
{ "type": "Feature", "properties": { "name": "Chumb Bucket", "type": "fnb", "condition": "poor", "status": "existing", "progress": 0, "budget": 0.0, "water_use": 242400.0, "wastewater_prod": 198350.0, "solidwaste_prod": 4230.1, "power_use": 12030.0, "visitor": 147, "room": null, "labor": 2, "gdp": 222.264 }, "geometry": { "type": "Point", "coordinates": [ 151.22214248, -18.61884751 ] } },
{ "type": "Feature", "properties": { "name": "Fancy", "type": "fnb", "condition": "good", "status": "existing", "progress": 0, "budget": 0.0, "water_use": 1947175350.0, "wastewater_prod": 1622348650.0, "solidwaste_prod": 32853899.6, "power_use": 68445.0, "visitor": 1296927, "room": null, "labor": 163, "gdp": 4205934.261 }, "geometry": { "type": "Point", "coordinates": [ 151.23276048, -18.62311807 ] } },
{ "type": "Feature", "properties": { "name": "Diner", "type": "fnb", "condition": "good", "status": "existing", "progress": 0, "budget": 0.0, "water_use": 1295047050.0, "wastewater_prod": 1079043450.0, "solidwaste_prod": 21849429.0, "power_use": 17335.0, "visitor": 862715, "room": null, "labor": 89, "gdp": 2797784.745 }, "geometry": { "type": "Point", "coordinates": [ 151.22446722, -18.6049789 ] } },
{ "type": "Feature", "properties": { "name": "Taco Sombrero", "type": "fnb", "condition": "fair", "status": "existing", "progress": 0, "budget": 0.0, "water_use": 2404551150.0, "wastewater_prod": 2003706850.0, "solidwaste_prod": 40560090.8, "power_use": 12705.0, "visitor": 1602691, "room": null, "labor": 47, "gdp": 2423268.792 }, "geometry": { "type": "Point", "coordinates": [ 151.23131514, -18.60906332 ] } },
{ "type": "Feature", "properties": { "name": "Stinky Burgers", "type": "fnb", "condition": "bad", "status": "existing", "progress": 0, "budget": 0.0, "water_use": 2085724050.0, "wastewater_prod": 1738032200.0, "solidwaste_prod": 35181973.9, "power_use": 12585.0, "visitor": 1390198, "room": null, "labor": 39, "gdp": 2101979.376 }, "geometry": { "type": "Point", "coordinates": [ 151.236987269999986, -18.59890002 ] } },
{ "type": "Feature", "properties": { "name": "Goofy Goober's Ice Cream Party Boat", "type": "fnb", "condition": "fair", "status": "existing", "progress": 0, "budget": 0.0, "water_use": 7023199950.0, "wastewater_prod": 5852445800.0, "solidwaste_prod": 118466540.5, "power_use": 26815.0, "visitor": 4331098, "room": null, "labor": 121, "gdp": 6548620.176 }, "geometry": { "type": "Point", "coordinates": [ 151.24423778, -18.59279746 ] } },
{ "type": "Feature", "properties": { "name": "Super Weenie Hut Jr's", "type": "fnb", "condition": "good", "status": "existing", "progress": 0, "budget": 0.0, "water_use": 5225511750.0, "wastewater_prod": 4354292000.0, "solidwaste_prod": 88148648.5, "power_use": 22475.0, "visitor": 3482470, "room": null, "labor": 165, "gdp": 5265494.64 }, "geometry": { "type": "Point", "coordinates": [ 151.2465215, -18.61167329 ] } },
{ "type": "Feature", "properties": { "name": "Weenie Hut Jr's", "type": "fnb", "condition": "good", "status": "existing", "progress": 0, "budget": 0.0, "water_use": 52531650.0, "wastewater_prod": 43727100.0, "solidwaste_prod": 887945.7, "power_use": 12405.0, "visitor": 34824, "room": null, "labor": 27, "gdp": 52653.888 }, "geometry": { "type": "Point", "coordinates": [ 151.25210015, -18.61044598 ] } },
{ "type": "Feature", "properties": { "name": "The Salty Spitoon", "type": "fnb", "condition": "poor", "status": "existing", "progress": 0, "budget": 0.0, "water_use": 31800750.0, "wastewater_prod": 26473250.0, "solidwaste_prod": 537434.8, "power_use": 12225.0, "visitor": 21091, "room": null, "labor": 15, "gdp": 31889.592 }, "geometry": { "type": "Point", "coordinates": [ 151.251058809999989, -18.60784261 ] } },
{ "type": "Feature", "properties": { "name": "Jewelry Store", "type": "shop", "condition": "good", "status": "existing", "progress": 0, "budget": 0.0, "water_use": 36248250.0, "wastewater_prod": 30161250.0, "solidwaste_prod": 613157.4, "power_use": 55375.0, "visitor": 23983, "room": null, "labor": 25, "gdp": 3707675.868 }, "geometry": { "type": "Point", "coordinates": [ 151.22371715, -18.6122687 ] } },
{ "type": "Feature", "properties": { "name": "Angry Jack's Shell Emporium", "type": "shop", "condition": "fair", "status": "existing", "progress": 0, "budget": 0.0, "water_use": 63936900.0, "wastewater_prod": 53222350.0, "solidwaste_prod": 1080668.3, "power_use": 37480.0, "visitor": 42391, "room": null, "labor": 32, "gdp": 6553479.036 }, "geometry": { "type": "Point", "coordinates": [ 151.24736981, -18.6061499 ] } },
{ "type": "Feature", "properties": { "name": "Bikini Bottom Supermarket", "type": "shop", "condition": "good", "status": "existing", "progress": 0, "budget": 0.0, "water_use": 949730100.0, "wastewater_prod": 791299400.0, "solidwaste_prod": 16024304.2, "power_use": 24170.0, "visitor": 9794956, "room": null, "labor": 78, "gdp": 9779456.064 }, "geometry": { "type": "Point", "coordinates": [ 151.221945580000011, -18.61088835 ] } },
{ "type": "Feature", "properties": { "name": "Noses 'n Things", "type": "shop", "condition": "fair", "status": "existing", "progress": 0, "budget": 0.0, "water_use": 692341050.0, "wastewater_prod": 576861450.0, "solidwaste_prod": 11680955.4, "power_use": 19735.0, "visitor": 461203, "room": null, "labor": 49, "gdp": 7130138.988 }, "geometry": { "type": "Point", "coordinates": [ 151.225057600000014, -18.61541583 ] } },
{ "type": "Feature", "properties": { "name": "Palace of Pranks", "type": "shop", "condition": "fair", "status": "existing", "progress": 0, "budget": 0.0, "water_use": 492721350.0, "wastewater_prod": 410522650.0, "solidwaste_prod": 8313611.6, "power_use": 21645.0, "visitor": 328167, "room": null, "labor": 43, "gdp": 5073335.532 }, "geometry": { "type": "Point", "coordinates": [ 151.232459189999986, -18.61631918 ] } },
{ "type": "Feature", "properties": { "name": "Flower Shop", "type": "shop", "condition": "poor", "status": "existing", "progress": 0, "budget": 0.0, "water_use": 144502200.0, "wastewater_prod": 120389300.0, "solidwaste_prod": 2438403.4, "power_use": 16240.0, "visitor": 96218, "room": null, "labor": 16, "gdp": 14874917.928 }, "geometry": { "type": "Point", "coordinates": [ 151.234906959999989, -18.6134343 ] } },
{ "type": "Feature", "properties": { "name": "Discount Grocery Mart", "type": "shop", "condition": "poor", "status": "existing", "progress": 0, "budget": 0.0, "water_use": 3554227800.0, "wastewater_prod": 2961739700.0, "solidwaste_prod": 59952507.4, "power_use": 16960.0, "visitor": 2369018, "room": null, "labor": 64, "gdp": 3624076.728 }, "geometry": { "type": "Point", "coordinates": [ 151.24193096, -18.61055851 ] } },
{ "type": "Feature", "properties": { "name": "Sardine's Sundries", "type": "shop", "condition": "bad", "status": "existing", "progress": 0, "budget": 0.0, "water_use": 1035312600.0, "wastewater_prod": 862745900.0, "solidwaste_prod": 17462839.0, "power_use": 16120.0, "visitor": 690150, "room": null, "labor": 8, "gdp": 1669429.4 }, "geometry": { "type": "Point", "coordinates": [ 151.239529589999989, -18.60646654 ] } },
{ "type": "Feature", "properties": { "name": "Magic Shop", "type": "shop", "condition": "poor", "status": "existing", "progress": 0, "budget": 0.0, "water_use": 1020753600.0, "wastewater_prod": 850540400.0, "solidwaste_prod": 17220109.6, "power_use": 16720.0, "visitor": 680152, "room": null, "labor": 48, "gdp": 10514878.592 }, "geometry": { "type": "Point", "coordinates": [ 151.228723480000014, -18.60313242 ] } },
{ "type": "Feature", "properties": { "name": "Costume SUpplies", "type": "shop", "condition": "fair", "status": "existing", "progress": 0, "budget": 0.0, "water_use": 354332700.0, "wastewater_prod": 295248050.0, "solidwaste_prod": 5977544.5, "power_use": 16240.0, "visitor": 236105, "room": null, "labor": 16, "gdp": 3650888.58 }, "geometry": { "type": "Point", "coordinates": [ 151.229749160000011, -18.61063685 ] } },
{ "type": "Feature", "properties": { "name": "Clarinets Store", "type": "shop", "condition": "poor", "status": "existing", "progress": 0, "budget": 0.0, "water_use": 91026900.0, "wastewater_prod": 75833850.0, "solidwaste_prod": 1536170.1, "power_use": 16180.0, "visitor": 60597, "room": null, "labor": 12, "gdp": 9368053.812000001 }, "geometry": { "type": "Point", "coordinates": [ 151.228117309999988, -18.60947124 ] } },
{ "type": "Feature", "properties": { "name": "Barg'N-Mart", "type": "shop", "condition": "fair", "status": "existing", "progress": 0, "budget": 0.0, "water_use": 1063536300.0, "wastewater_prod": 886181700.0, "solidwaste_prod": 17942136.0, "power_use": 16810.0, "visitor": 708630, "room": null, "labor": 54, "gdp": 10955363.48 }, "geometry": { "type": "Point", "coordinates": [ 151.22930915, -18.60821969 ] } },
{ "type": "Feature", "properties": { "name": "Grab-it Mart", "type": "shop", "condition": "poor", "status": "existing", "progress": 0, "budget": 0.0, "water_use": 778459200.0, "wastewater_prod": 648632050.0, "solidwaste_prod": 13133269.1, "power_use": 16690.0, "visitor": 518637, "room": null, "labor": 46, "gdp": 8179205.652 }, "geometry": { "type": "Point", "coordinates": [ 151.23467384, -18.61124879 ] } }
]
}
